[{"lon": -74.01, "lat": 40.71, "zip": "11225", "country": "US", "name": "New York", "id": 101956842, "condition": "Partly cloudy", "temp": 27.2, "pressure": 739, "humidity": 56, "wind": {"speed": 2.9, "deg": 185}}, {"lon": -71.06, "lat": 42.36, "zip": "02133", "country": "US", "name": "Boston", "id": 129302751, "condition": "Clear", "temp": 29.1, "pressure": 756, "humidity": 52, "wind": {"speed": 4.2, "deg": 231}}, {"lon": -73.58, "lat": 45.49, "zip": "H3G", "country": "CA", "name": "Montreal", "id": 279348012, "condition": "Drizzle", "temp": 19.7, "pressure": 731, "humidity": 86, "wind": {"speed": 2.7, "deg": 48}}, {"lon": -75.71, "lat": 45.42, "zip": "K1A", "country": "CA", "name": "Ottawa", "id": 207085781, "condition": "Thunderstorms", "temp": 17.6, "pressure": 729, "humidity": 92, "wind": {"speed": 5.2, "deg": 96}}, {"lon": -79.39, "lat": 43.64, "zip": "M5W", "country": "CA", "name": "Toronto", "id": 212571246, "condition": "Windy", "temp": 22.17, "pressure": 749, "humidity": 58, "wind": {"speed": 8.6, "deg": 259}}, {"lon": -75.18, "lat": 39.99, "zip": "19106", "country": "US", "name": "Philadelphia", "id": 169906345, "condition": "Clear", "temp": 28.1, "pressure": 745, "humidity": 53, "wind": {"speed": 1.6, "deg": 312}}, {"lon": -77.03, "lat": 38.89, "zip": "20500", "country": "US", "name": "Washington", "id": 100587963, "condition": "Partly cloudy", "temp": 23.8, "pressure": 738, "humidity": 48, "wind": {"speed": 2.5, "deg": 146}}, {"lon": -87.73, "lat": 41.85, "zip": "60606", "country": "US", "name": "Chicago", "id": 113967034, "condition": "Clear", "temp": 25.2, "pressure": 756, "humidity": 61, "wind": {"speed": 4.5, "deg": 296}}, {"lon": -90.2, "lat": 38.63, "zip": "63102", "country": "US", "name": "St. Louis", "id": 117119347, "condition": "Windy", "temp": 22.9, "pressure": 735, "humidity": 47, "wind": {"speed": 8.7, "deg": 263}}, {"lon": -86.17, "lat": 39.77, "zip": "46204", "country": "US", "name": "Indianapolis", "id": 118926487, "condition": "Partly cloudy", "temp": 23.2, "pressure": 748, "humidity": 52, "wind": {"speed": 3.4, "deg": 195}}, {"lon": -84.51, "lat": 39.1, "zip": "45202", "country": "US", "name": "Cincinnati", "id": 119346215, "condition": "Showers", "temp": 21.1, "pressure": 737, "humidity": 89, "wind": {"speed": 5.2, "deg": 15}}, {"lon": -82.99, "lat": 39.96, "zip": "43215", "country": "US", "name": "Columbus", "id": 120430589, "condition": "Drizzle", "temp": 18.3, "pressure": 729, "humidity": 78, "wind": {"speed": 1.2, "deg": 329}}, {"lon": -84.4, "lat": 33.76, "zip": "30313", "country": "US", "name": "Atlanta", "id": 123536401, "condition": "Partly cloudy", "temp": 29.3, "pressure": 750, "humidity": 63, "wind": {"speed": 2.9, "deg": 239}}, {"lon": -80.2, "lat": 25.77, "zip": "33128", "country": "US", "name": "Miami", "id": 124623450, "condition": "Clear", "temp": 33.2, "pressure": 761, "humidity": 65, "wind": {"speed": 3.9, "deg": 75}}, {"lon": -90.07, "lat": 29.94, "zip": "70130", "country": "US", "name": "New Orleans", "id": 125346011, "condition": "Hurricane", "temp": 25.0, "pressure": 711, "humidity": 85, "wind": {"speed": 39.4, "deg": 163}}, {"lon": -96.77, "lat": 32.78, "zip": "75202", "country": "US", "name": "Dallas", "id": 128125834, "condition": "Partly cloudy", "temp": 27.4, "pressure": 756, "humidity": 40, "wind": {"speed": 3.9, "deg": 187}}, {"lon": -95.38, "lat": 29.75, "zip": "77002", "country": "US", "name": "Houston", "id": 129504197, "condition": "Showers", "temp": 21.6, "pressure": 742, "humidity": 92, "wind": {"speed": 5.7, "deg": 249}}, {"lon": -104.99, "lat": 39.73, "zip": "80203", "country": "US", "name": "Denver", "id": 132439187, "condition": "Snow", "temp": -1.6, "pressure": 737, "humidity": 86, "wind": {"speed": 4.1, "deg": 275}}, {"lon": -115.19, "lat": 36.15, "zip": "89101", "country": "US", "name": "Las Vegas", "id": 133406361, "condition": "Clear", "temp": 28.2, "pressure": 749, "humidity": 35, "wind": {"speed": 3.7, "deg": 115}}, {"lon": -118.34, "lat": 34.1, "zip": "90028", "country": "US", "name": "Los Angeles", "id": 135319045, "condition": "Clear", "temp": 25.0, "pressure": 763, "humidity": 42, "wind": {"speed": 2.1, "deg": 283}}, {"lon": -122.44, "lat": 37.78, "zip": "94133", "country": "US", "name": "San Francisco", "id": 138952017, "condition": "Partly cloudy", "temp": 21.4, "pressure": 756, "humidity": 51, "wind": {"speed": 3.9, "deg": 267}}, {"lon": -122.41, "lat": 47.61, "zip": "98109", "country": "US", "name": "Seattle", "id": 141346279, "condition": "Drizzle", "temp": 23.5, "pressure": 742, "humidity": 75, "wind": {"speed": 1.2, "deg": 320}}, {"lon": -92.93, "lat": 40.63, "zip": "52549", "country": "US", "name": "Cincinnati", "id": 144345279, "condition": "Partly cloudy", "temp": 25.8, "pressure": 753, "humidity": 55, "wind": {"speed": 2.4, "deg": 105}}]